latitude,longitude,altitude(feet),ascent(feet),speed(mph),distance(feet),time(millisecond),datetime(utc),satellites,voltage(v),max_altitude(feet),max_ascent(feet),max_speed(mph),max_distance(feet),compass_heading(degrees),isPhoto,isVideo,rc_elevator,rc_aileron,rc_throttle,rc_rudder,gimbal_heading(degrees),gimbal_pitch(degrees),battery_percent,voltageCell1,voltageCell2,voltageCell3,voltageCell4,voltageCell5,voltageCell6,flycStateRaw,flycState,message
4.474929,-75.840997,4028.198852,7.217848,7.605596,0,0,3/5/2017 17:25,20,15.678,4028.198852,7.217848,7.605596,0,36,1,0,1024,1024,1512,496,47,0,95,4.226,4.217,4.22,4.228,0,0,6,GPS_Atti,
4.474929,-75.840997,4030.49544,9.514436,7.82929,0,240,3/5/2017 17:25,20,15.678,4030.49544,9.514436,7.82929,0,15.6,0,1,1024,1024,1475,514,47,0,95,4.226,4.217,4.22,4.228,0,0,6,GPS_Atti,
4.474929,-75.840997,4033.120112,12.139108,8.500372,0,350,3/5/2017 17:25,20,15.678,4033.120112,12.139108,8.500372,0,353,0,0,1024,1024,1460,534,47,0,95,4.226,4.217,4.22,4.228,0,0,6,GPS_Atti,
4.474929,-75.840997,4034.432448,13.451444,7.82929,0,500,3/5/2017 17:25,20,15.678,4034.432448,13.451444,8.500372,0,341.5,0,0,1024,1024,1457,563,47,0,95,4.226,4.217,4.22,4.228,0,0,6,GPS_Atti,
4.474929,-75.840997,4037.385204,16.4042,7.60783294,0,720,3/5/2017 17:25,20,15.678,4037.385204,16.4042,8.500372,0,319.5,0,0,1024,1024,1336,743,47,0,95,4.226,4.217,4.22,4.228,0,0,6,GPS_Atti,
4.47493,-75.840998,4039.353708,18.372704,6.74884798,0.515190305,930,3/5/2017 17:25,20,15.678,4039.353708,18.372704,8.500372,0.515190305,299.8,0,0,1024,1024,971,1024,47,0,95,4.226,4.217,4.22,4.228,0,0,6,GPS_Atti,
4.47493,-75.840998,4040.666044,19.68504,6.30369692,0.515190305,1120,3/5/2017 17:25,20,15.678,4040.666044,19.68504,8.500372,0.515190305,292.8,0,0,1024,1024,604,1024,47,0,95,4.226,4.217,4.22,4.228,0,0,6,GPS_Atti,
4.474931,-75.840999,4042.634548,21.653544,3.64844914,1.03037733,1200,3/5/2017 17:25,20,15.678,4042.634548,21.653544,8.500372,1.03037733,287.3,1,0,1024,1024,616,1024,47,0,95,4.226,4.217,4.22,4.228,0,0,6,GPS_Atti,
4.474931,-75.840999,4042.634548,21.653544,3.64844914,1.03037733,1210,3/5/2017 17:25,20,15.678,4042.634548,21.653544,8.500372,1.03037733,287.3,0,0,1024,1024,616,1024,47,0,95,4.226,4.217,4.22,4.228,0,0,6,GPS_Atti,
4.474931,-75.840999,4042.634548,21.653544,3.64844914,1.03037733,1290,3/5/2017 17:25,20,15.678,4042.634548,21.653544,8.500372,1.03037733,287.3,0,0,1024,1024,615,1024,47,0,95,4.226,4.217,4.22,4.228,0,0,6,GPS_Atti,
4.474932,-75.840999,4043.946884,22.96588,2.2928635,1.314252011,1450,3/5/2017 17:25,20,15.678,4043.946884,22.96588,8.500372,1.314252011,286.8,0,0,1024,1024,580,1024,47,0,95,4.226,4.217,4.22,4.228,0,0,6,GPS_Atti,
4.474932,-75.841,4043.946884,22.96588,1.6441509,1.545567635,1570,3/5/2017 17:25,20,15.678,4043.946884,22.96588,8.500372,1.545567635,286.6,0,0,1024,1024,564,1024,47,0,95,4.226,4.217,4.22,4.228,0,0,6,GPS_Atti,
4.474932,-75.841,4043.946884,22.96588,0.83661556,1.545567635,1700,3/5/2017 17:25,20,15.678,4043.946884,22.96588,8.500372,1.545567635,286.6,0,0,1024,1024,582,1024,47,0,95,4.226,4.217,4.22,4.228,0,0,6,GPS_Atti,
4.474932,-75.841,4043.946884,22.96588,0.5480503,1.545567635,1850,3/5/2017 17:25,20,15.678,4043.946884,22.96588,8.500372,1.545567635,286.8,0,0,1024,1024,579,1024,47,0,95,4.226,4.217,4.22,4.228,0,0,6,GPS_Atti,
4.474932,-75.841,4043.946884,22.96588,1.37795504,1.545567635,2010,3/5/2017 17:25,20,15.38,4043.946884,22.96588,8.500372,1.545567635,286.8,0,0,1024,1024,590,1021,47,0,95,4.226,4.217,4.22,4.228,0,0,6,GPS_Atti,
4.474932,-75.841,4043.946884,22.96588,1.37795504,1.545567635,2020,3/5/2017 17:25,20,15.38,4043.946884,22.96588,8.500372,1.545567635,286.8,0,0,1024,1024,590,1021,47,0,95,4.226,4.217,4.22,4.228,0,0,6,GPS_Atti,
4.474932,-75.841,4043.290716,22.309712,2.684328,1.545567635,2150,3/5/2017 17:25,20,15.38,4043.946884,22.96588,8.500372,1.545567635,287,0,0,1024,1024,567,991,47,0,95,4.226,4.217,4.22,4.228,0,0,6,GPS_Atti,
4.474932,-75.841,4042.634548,21.653544,2.91696976,1.545567635,2320,3/5/2017 17:25,20,15.38,4043.946884,22.96588,8.500372,1.545567635,287,0,0,1024,1024,781,603,47,0,95,4.226,4.217,4.22,4.228,0,0,6,GPS_Atti,
4.474931,-75.841,4042.306464,21.32546,3.131716,1.312706735,2480,3/5/2017 17:25,20,15.38,4043.946884,22.96588,8.500372,1.545567635,286.8,0,0,1024,1024,900,601,47,0,95,4.226,4.217,4.22,4.228,0,0,6,GPS_Atti,
4.474931,-75.841,4040.994128,20.013124,3.35541,1.312706735,2670,3/5/2017 17:25,20,15.38,4043.946884,22.96588,8.500372,1.545567635,276.5,0,0,1024,1024,905,611,47,0,95,4.226,4.217,4.22,4.228,0,0,6,GPS_Atti,
4.474931,-75.841,4040.666044,19.68504,1.789552,1.312706735,2880,3/5/2017 17:25,20,15.38,4043.946884,22.96588,8.500372,1.545567635,256.8,0,0,1024,1024,1024,1024,47,0,95,4.226,4.217,4.22,4.228,0,0,6,GPS_Atti,
4.474931,-75.841,4040.33796,19.356956,0.894776,1.312706735,3080,3/5/2017 17:25,20,15.38,4043.946884,22.96588,8.500372,1.545567635,243.7,0,0,1024,1024,1024,1024,47,0,95,4.226,4.217,4.22,4.228,0,0,6,GPS_Atti,
4.474931,-75.841,4040.009876,19.028872,0.223694,1.312706735,3270,3/5/2017 17:25,20,15.38,4043.946884,22.96588,8.500372,1.545567635,241.8,0,0,1024,1024,1024,1024,47,0,95,4.226,4.217,4.22,4.228,0,0,6,GPS_Atti,
4.47493,-75.840999,4040.009876,19.028872,0.31540854,0.813838609,3480,3/5/2017 17:25,20,15.38,4043.946884,22.96588,8.500372,1.545567635,241.2,0,0,1024,1024,1024,973,47,0,95,4.226,4.217,4.22,4.228,0,0,6,GPS_Atti,
4.47493,-75.840999,4039.353708,18.372704,0.31540854,0.813838609,3670,3/5/2017 17:25,20,15.38,4043.946884,22.96588,8.500372,1.545567635,241,0,0,1024,1024,1024,1024,47,0,95,4.226,4.217,4.22,4.228,0,0,6,GPS_Atti,
4.47493,-75.840998,4039.353708,18.372704,0.31540854,0.515190305,3830,3/5/2017 17:25,20,15.38,4043.946884,22.96588,8.500372,1.545567635,235.3,0,0,1024,1024,1024,1024,47,0,95,4.226,4.217,4.22,4.228,0,0,6,GPS_Atti,
4.47493,-75.840998,4039.353708,18.372704,0,0.515190305,4030,3/5/2017 17:25,20,15.792,4043.946884,22.96588,8.500372,1.545567635,234.3,0,0,1024,1024,1024,1024,47,0,95,4.226,4.217,4.22,4.228,0,0,6,GPS_Atti,
4.47493,-75.840998,4039.353708,18.372704,0,0.515190305,4210,3/5/2017 17:25,20,15.792,4043.946884,22.96588,8.500372,1.545567635,234,0,0,1024,1024,1024,1024,47,0,95,4.226,4.217,4.22,4.228,0,0,6,GPS_Atti,
4.474929,-75.840997,4039.353708,18.372704,0.223694,0,4360,3/5/2017 17:25,20,15.792,4043.946884,22.96588,8.500372,1.545567635,233.8,0,0,1024,1024,1024,1024,47,0,95,4.226,4.217,4.22,4.228,0,0,6,GPS_Atti,
4.47493,-75.840997,4039.353708,18.372704,0.223694,0.364849093,4540,3/5/2017 17:25,20,15.792,4043.946884,22.96588,8.500372,1.545567635,233.8,0,0,1024,1024,1024,1024,47,0,95,4.226,4.217,4.22,4.228,0,0,6,GPS_Atti,
4.474929,-75.840997,4039.353708,18.372704,0.223694,0,4660,3/5/2017 17:25,20,15.792,4043.946884,22.96588,8.500372,1.545567635,234,0,0,1024,1024,1024,1024,47,0,95,4.226,4.217,4.22,4.228,0,0,6,GPS_Atti,
4.474929,-75.840997,4039.353708,18.372704,0.223694,0,4840,3/5/2017 17:25,20,15.792,4043.946884,22.96588,8.500372,1.545567635,233.8,0,0,1024,1024,1024,1024,47,0,95,4.226,4.217,4.22,4.228,0,0,6,GPS_Atti,
4.47493,-75.840997,4039.353708,18.372704,0.223694,0.364849093,5040,3/5/2017 17:25,20,15.143,4043.946884,22.96588,8.500372,1.545567635,233.8,0,0,1024,1024,1024,1024,47,0,95,4.226,4.217,4.22,4.228,0,0,6,GPS_Atti,
4.47493,-75.840997,4039.353708,18.372704,0.223694,0.364849093,5170,3/5/2017 17:25,20,15.143,4043.946884,22.96588,8.500372,1.545567635,233.8,0,0,1024,1024,1024,1024,47,0,95,4.226,4.217,4.22,4.228,0,0,6,GPS_Atti,
4.47493,-75.840997,4039.353708,18.372704,0.31540854,0.364849093,5310,3/5/2017 17:25,20,15.143,4043.946884,22.96588,8.500372,1.545567635,233.8,0,0,1024,1024,1024,1024,47,0,95,4.226,4.217,4.22,4.228,0,0,6,GPS_Atti,
4.47493,-75.840997,4039.353708,18.372704,0.50107456,0.364849093,5460,3/5/2017 17:25,20,15.143,4043.946884,22.96588,8.500372,1.545567635,233.8,0,0,1024,1024,1024,1024,47,0,95,4.226,4.217,4.22,4.228,0,0,6,GPS_Atti,
4.47493,-75.840997,4039.353708,18.372704,0.31540854,0.364849093,5630,3/5/2017 17:25,20,15.143,4043.946884,22.96588,8.500372,1.545567635,233.8,0,0,1024,1024,1024,1024,47,0,95,4.226,4.217,4.22,4.228,0,0,6,GPS_Atti,
4.47493,-75.840997,4039.353708,18.372704,0.31540854,0.364849093,5770,3/5/2017 17:25,20,15.143,4043.946884,22.96588,8.500372,1.545567635,234,0,1,1024,1024,1024,1024,235.1,0,95,4.226,4.217,4.22,4.228,0,0,6,GPS_Atti,
4.47493,-75.840997,4039.025624,18.04462,0.50107456,0.364849093,5890,3/5/2017 17:25,20,15.143,4043.946884,22.96588,8.500372,1.545567635,234,0,0,1024,1024,1024,1024,235.1,0,95,4.226,4.217,4.22,4.228,0,0,6,GPS_Atti,
4.474931,-75.840997,4039.025624,18.04462,0.31540854,0.729698186,6080,3/5/2017 17:25,20,15.143,4043.946884,22.96588,8.500372,1.545567635,234.1,0,0,1024,1024,1057,836,235.1,0,95,4.226,4.217,4.22,4.228,0,0,6,GPS_Atti,
4.474931,-75.840997,4039.353708,18.372704,0.38699062,0.729698186,6260,3/5/2017 17:25,20,15.143,4043.946884,22.96588,8.500372,1.545567635,234,0,0,1024,1024,1029,842,235,0,95,4.226,4.217,4.22,4.228,0,0,6,GPS_Atti,
4.474931,-75.840997,4039.025624,18.04462,0.38699062,0.729698186,6400,3/5/2017 17:25,20,15.143,4043.946884,22.96588,8.500372,1.545567635,230.5,0,0,1024,1024,1024,842,235,0,95,4.226,4.217,4.22,4.228,0,0,6,GPS_Atti,
4.474931,-75.840997,4039.025624,18.04462,0.31540854,0.729698186,6510,3/5/2017 17:25,20,15.143,4043.946884,22.96588,8.500372,1.545567635,227.5,0,0,1024,1024,1024,890,235,0,95,4.226,4.217,4.22,4.228,0,0,6,GPS_Atti,
4.474931,-75.840998,4039.025624,18.04462,0.31540854,0.815331391,6650,3/5/2017 17:25,20,15.143,4043.946884,22.96588,8.500372,1.545567635,221,0,0,1024,1024,1024,895,228.4,0,95,4.226,4.217,4.22,4.228,0,0,6,GPS_Atti,
4.474932,-75.840998,4039.025624,18.04462,0.38699062,1.153402268,6800,3/5/2017 17:25,20,15.143,4043.946884,22.96588,8.500372,1.545567635,218.2,0,0,1024,1024,1024,1021,228.4,0,95,4.226,4.217,4.22,4.228,0,0,6,GPS_Atti,
4.474932,-75.840998,4039.025624,18.04462,0.31540854,1.153402268,7010,3/5/2017 17:25,20,15.297,4043.946884,22.96588,8.500372,1.545567635,215.7,0,0,1024,1024,1024,1024,228.4,0,95,4.226,4.217,4.22,4.228,0,0,6,GPS_Atti,
4.474932,-75.840998,4039.025624,18.04462,0.223694,1.153402268,7130,3/5/2017 17:25,20,15.297,4043.946884,22.96588,8.500372,1.545567635,212.6,0,0,1024,1024,1024,1024,219.2,0,95,4.226,4.217,4.22,4.228,0,0,6,GPS_Atti,
4.474932,-75.840998,4039.025624,18.04462,0.223694,1.153402268,7150,3/5/2017 17:25,20,15.297,4043.946884,22.96588,8.500372,1.545567635,212.6,0,0,1024,1024,1024,1024,219.2,0,95,4.226,4.217,4.22,4.228,0,0,6,GPS_Atti,
4.474932,-75.840998,4039.025624,18.04462,0,1.153402268,7390,3/5/2017 17:25,20,15.297,4043.946884,22.96588,8.500372,1.545567635,212.6,0,0,1024,1024,1024,1024,218.4,0,95,4.226,4.217,4.22,4.228,0,0,6,GPS_Atti,
4.474932,-75.840998,4039.025624,18.04462,0,1.153402268,7550,3/5/2017 17:25,20,15.297,4043.946884,22.96588,8.500372,1.545567635,212.6,0,0,1024,1024,1024,1024,218.4,0,95,4.226,4.217,4.22,4.228,0,0,6,GPS_Atti,
4.474932,-75.840998,4039.025624,18.04462,0,1.153402268,7680,3/5/2017 17:25,20,15.297,4043.946884,22.96588,8.500372,1.545567635,212.7,0,0,1024,1024,1024,1024,218.4,0,95,4.226,4.217,4.22,4.228,0,0,6,GPS_Atti,
4.474932,-75.840998,4039.025624,18.04462,0,1.153402268,7890,3/5/2017 17:25,20,15.297,4043.946884,22.96588,8.500372,1.545567635,212.6,0,0,1024,1024,1024,1024,216.5,0,95,4.226,4.217,4.22,4.228,0,0,6,GPS_Atti,
4.474932,-75.840998,4039.025624,18.04462,0.447388,1.153402268,8050,3/5/2017 17:25,20,15.297,4043.946884,22.96588,8.500372,1.545567635,212.7,0,0,1024,1024,1024,1024,216.5,0,95,4.226,4.217,4.22,4.228,0,0,6,GPS_Atti,
4.474932,-75.840998,4038.69754,17.716536,0,1.153402268,8300,3/5/2017 17:25,20,15.297,4043.946884,22.96588,8.500372,1.545567635,212.7,0,0,1024,1024,1024,1024,216.5,0,95,4.226,4.217,4.22,4.228,0,0,6,GPS_Atti,
4.474932,-75.840998,4039.025624,18.04462,0.223694,1.153402268,8520,3/5/2017 17:25,20,15.297,4043.946884,22.96588,8.500372,1.545567635,212.6,0,0,1024,1024,1024,1024,215.4,0,95,4.226,4.217,4.22,4.228,0,0,6,GPS_Atti,
4.474932,-75.840998,4039.025624,18.04462,0,1.153402268,8700,3/5/2017 17:25,20,15.297,4043.946884,22.96588,8.500372,1.545567635,212.6,0,0,1024,1024,1024,1024,215.4,0,95,4.226,4.217,4.22,4.228,0,0,6,GPS_Atti,
4.474932,-75.840998,4039.025624,18.04462,0,1.153402268,8850,3/5/2017 17:25,20,15.297,4043.946884,22.96588,8.500372,1.545567635,212.5,0,0,1024,1024,1024,1024,215.4,0,95,4.226,4.217,4.22,4.228,0,0,6,GPS_Atti,
4.474932,-75.840998,4038.69754,17.716536,0,1.153402268,9000,3/5/2017 17:25,20,15.225,4043.946884,22.96588,8.500372,1.545567635,212.5,0,0,1024,1024,1024,1024,214.9,0,95,4.226,4.217,4.22,4.228,0,0,6,GPS_Atti,
4.474932,-75.840998,4038.69754,17.716536,0.223694,1.153402268,9210,3/5/2017 17:25,20,15.225,4043.946884,22.96588,8.500372,1.545567635,212.5,0,0,1024,1024,1024,1024,214.9,0,95,4.226,4.217,4.22,4.228,0,0,6,GPS_Atti,
4.474932,-75.840998,4039.025624,18.04462,0,1.153402268,9470,3/5/2017 17:25,20,15.225,4043.946884,22.96588,8.500372,1.545567635,212.5,0,0,1024,1024,1024,1024,214.9,0,95,4.226,4.217,4.22,4.228,0,0,6,GPS_Atti,
4.474932,-75.840998,4039.025624,18.04462,0,1.153402268,9590,3/5/2017 17:25,20,15.225,4043.946884,22.96588,8.500372,1.545567635,213,0,0,1024,1024,1024,1024,214.4,0,95,4.226,4.217,4.22,4.228,0,0,6,GPS_Atti,
4.474932,-75.840998,4039.025624,18.04462,0.223694,1.153402268,9740,3/5/2017 17:25,20,15.225,4043.946884,22.96588,8.500372,1.545567635,213,0,0,1024,1024,1024,1024,214.4,0,95,4.226,4.217,4.22,4.228,0,0,6,GPS_Atti,
4.474932,-75.840998,4039.025624,18.04462,0,1.153402268,9860,3/5/2017 17:25,20,15.225,4043.946884,22.96588,8.500372,1.545567635,212.9,0,0,1024,1024,1024,1024,214.4,0,95,4.226,4.217,4.22,4.228,0,0,6,GPS_Atti,
4.474932,-75.840998,4039.025624,18.04462,0,1.153402268,9970,3/5/2017 17:25,20,15.203,4043.946884,22.96588,8.500372,1.545567635,212.6,0,0,1024,1024,1024,1024,214.2,0,95,4.226,4.217,4.22,4.228,0,0,6,GPS_Atti,
4.474932,-75.840998,4039.025624,18.04462,0,1.153402268,10110,3/5/2017 17:25,20,15.203,4043.946884,22.96588,8.500372,1.545567635,212.5,0,0,1024,1024,1024,1024,214.2,0,95,4.226,4.217,4.22,4.228,0,0,6,GPS_Atti,
4.474932,-75.840998,4039.025624,18.04462,0.223694,1.153402268,10270,3/5/2017 17:25,20,15.203,4043.946884,22.96588,8.500372,1.545567635,212.4,0,0,1024,1024,1024,1024,214.2,0,95,4.226,4.217,4.22,4.228,0,0,6,GPS_Atti,
4.474932,-75.840998,4039.025624,18.04462,0,1.153402268,10450,3/5/2017 17:25,20,15.203,4043.946884,22.96588,8.500372,1.545567635,212.4,0,0,1024,1024,1024,1024,214.2,0,95,4.226,4.217,4.22,4.228,0,0,6,GPS_Atti,
4.474932,-75.840998,4039.025624,18.04462,0,1.153402268,10570,3/5/2017 17:25,20,15.203,4043.946884,22.96588,8.500372,1.545567635,212.2,0,0,1024,1024,1024,1024,214.2,0,95,4.226,4.217,4.22,4.228,0,0,6,GPS_Atti,
4.474932,-75.840998,4039.025624,18.04462,0.223694,1.153402268,10680,3/5/2017 17:25,20,15.203,4043.946884,22.96588,8.500372,1.545567635,212.4,0,0,1024,1024,1024,1024,214.2,0,95,4.226,4.217,4.22,4.228,0,0,6,GPS_Atti,
4.474932,-75.840998,4039.025624,18.04462,0,1.153402268,10800,3/5/2017 17:25,20,15.203,4043.946884,22.96588,8.500372,1.545567635,212.4,0,0,1024,1024,1024,1024,213.9,0,95,4.226,4.217,4.22,4.228,0,0,6,GPS_Atti,
4.474932,-75.840998,4039.025624,18.04462,0,1.153402268,10810,3/5/2017 17:25,20,15.203,4043.946884,22.96588,8.500372,1.545567635,212.4,0,0,1024,1024,1024,1024,213.9,0,95,4.226,4.217,4.22,4.228,0,0,6,GPS_Atti,
4.474932,-75.840998,4039.025624,18.04462,0,1.153402268,10820,3/5/2017 17:25,20,15.203,4043.946884,22.96588,8.500372,1.545567635,212.4,0,0,1024,1024,1024,1024,213.9,0,95,4.226,4.217,4.22,4.228,0,0,6,GPS_Atti,
4.474932,-75.840998,4038.69754,17.716536,0,1.153402268,10960,3/5/2017 17:25,20,15.234,4043.946884,22.96588,8.500372,1.545567635,212.5,0,0,1024,1024,1024,1024,213.9,0,95,4.226,4.217,4.22,4.228,0,0,6,GPS_Atti,
4.474932,-75.840998,4039.025624,18.04462,0.223694,1.153402268,11100,3/5/2017 17:25,20,15.234,4043.946884,22.96588,8.500372,1.545567635,212.5,0,0,1024,1024,1024,1024,213.9,0,95,4.226,4.217,4.22,4.228,0,0,6,GPS_Atti,
4.474932,-75.840999,4039.025624,18.04462,0,1.314252011,11300,3/5/2017 17:25,20,15.234,4043.946884,22.96588,8.500372,1.545567635,212.6,0,0,1024,1024,1024,1024,213.9,0,95,4.226,4.217,4.22,4.228,0,0,6,GPS_Atti,
4.474932,-75.840999,4039.025624,18.04462,0,1.314252011,11450,3/5/2017 17:25,20,15.234,4043.946884,22.96588,8.500372,1.545567635,213,0,0,1024,1024,1024,1024,213.9,0,95,4.226,4.217,4.22,4.228,0,0,6,GPS_Atti,
4.474932,-75.840999,4039.025624,18.04462,0,1.314252011,11560,3/5/2017 17:25,20,15.234,4043.946884,22.96588,8.500372,1.545567635,213.1,0,0,1024,1024,1024,1024,213.9,0,95,4.226,4.217,4.22,4.228,0,0,6,GPS_Atti,
4.474932,-75.840999,4039.025624,18.04462,0,1.314252011,11700,3/5/2017 17:25,20,15.234,4043.946884,22.96588,8.500372,1.545567635,213,0,0,1024,1024,1024,1024,213.9,0,95,4.226,4.217,4.22,4.228,0,0,6,GPS_Atti,
4.474932,-75.840999,4039.025624,18.04462,0,1.314252011,11880,3/5/2017 17:25,20,15.234,4043.946884,22.96588,8.500372,1.545567635,213,0,0,1024,1024,1024,1024,213.7,0,95,4.226,4.217,4.22,4.228,0,0,6,GPS_Atti,
4.474932,-75.840999,4039.025624,18.04462,0,1.314252011,12040,3/5/2017 17:25,20,15.144,4043.946884,22.96588,8.500372,1.545567635,212.9,0,0,1024,1024,1024,1024,213.7,0,95,4.226,4.217,4.22,4.228,0,0,6,GPS_Atti,
4.474932,-75.840999,4039.025624,18.04462,0,1.314252011,12190,3/5/2017 17:25,20,15.144,4043.946884,22.96588,8.500372,1.545567635,212.7,0,0,1024,1024,1024,1024,213.7,0,95,4.226,4.217,4.22,4.228,0,0,6,GPS_Atti,
4.474932,-75.840999,4039.025624,18.04462,0,1.314252011,12380,3/5/2017 17:25,20,15.144,4043.946884,22.96588,8.500372,1.545567635,212.7,0,0,1024,1024,1024,1024,213.7,0,95,4.226,4.217,4.22,4.228,0,0,6,GPS_Atti,
4.474932,-75.840999,4039.025624,18.04462,0,1.314252011,12600,3/5/2017 17:25,20,15.144,4043.946884,22.96588,8.500372,1.545567635,212.7,0,0,1024,1024,1024,1024,213.7,0,95,4.226,4.217,4.22,4.228,0,0,6,GPS_Atti,
4.474932,-75.840999,4039.025624,18.04462,0,1.314252011,12740,3/5/2017 17:25,20,15.144,4043.946884,22.96588,8.500372,1.545567635,212.7,0,0,1024,1024,1024,1024,213.7,0,95,4.226,4.217,4.22,4.228,0,0,6,GPS_Atti,
4.474932,-75.840999,4039.025624,18.04462,0,1.314252011,12880,3/5/2017 17:25,20,15.144,4043.946884,22.96588,8.500372,1.545567635,212.7,0,0,1024,1024,1024,1024,213.7,0,95,4.226,4.217,4.22,4.228,0,0,6,GPS_Atti,
4.474932,-75.840999,4039.025624,18.04462,0,1.314252011,13050,3/5/2017 17:25,20,15.144,4043.946884,22.96588,8.500372,1.545567635,212.9,0,0,1024,1024,1024,1024,213.7,0,95,4.226,4.217,4.22,4.228,0,0,6,GPS_Atti,
4.474932,-75.840999,4039.025624,18.04462,0,1.314252011,13200,3/5/2017 17:25,20,15.144,4043.946884,22.96588,8.500372,1.545567635,212.9,0,0,1024,1024,1024,1024,213.7,0,95,4.226,4.217,4.22,4.228,0,0,6,GPS_Atti,
4.474932,-75.840999,4039.025624,18.04462,0,1.314252011,13310,3/5/2017 17:25,20,15.144,4043.946884,22.96588,8.500372,1.545567635,212.7,0,0,1024,1024,1024,1024,213.5,0,95,4.226,4.217,4.22,4.228,0,0,6,GPS_Atti,
4.474932,-75.840999,4039.025624,18.04462,0,1.314252011,13320,3/5/2017 17:25,20,15.144,4043.946884,22.96588,8.500372,1.545567635,212.7,0,0,1024,1024,1024,1024,213.5,0,95,4.226,4.217,4.22,4.228,0,0,6,GPS_Atti,
4.474932,-75.840999,4039.025624,18.04462,0,1.314252011,13330,3/5/2017 17:25,20,15.144,4043.946884,22.96588,8.500372,1.545567635,212.7,0,0,1024,1024,1024,1024,213.5,0,95,4.226,4.217,4.22,4.228,0,0,6,GPS_Atti,
4.474932,-75.840999,4039.025624,18.04462,0.223694,1.314252011,13440,3/5/2017 17:25,20,15.144,4043.946884,22.96588,8.500372,1.545567635,212.7,0,0,1024,1024,1024,1024,213.5,0,95,4.226,4.217,4.22,4.228,0,0,6,GPS_Atti,
4.474932,-75.840998,4039.025624,18.04462,0,1.153402268,13640,3/5/2017 17:25,20,15.144,4043.946884,22.96588,8.500372,1.545567635,212.6,0,0,1024,1024,1024,1024,213.5,0,95,4.226,4.217,4.22,4.228,0,0,6,GPS_Atti,
4.474932,-75.840998,4039.025624,18.04462,0,1.153402268,13820,3/5/2017 17:25,20,15.144,4043.946884,22.96588,8.500372,1.545567635,212.5,0,0,1024,1024,1024,1024,213.5,0,95,4.226,4.217,4.22,4.228,0,0,6,GPS_Atti,
4.474932,-75.840998,4039.025624,18.04462,0.223694,1.153402268,13970,3/5/2017 17:25,20,15.202,4043.946884,22.96588,8.500372,1.545567635,212.4,0,0,1024,1024,1024,1024,213.4,0,95,4.226,4.217,4.22,4.228,0,0,6,GPS_Atti,
4.474932,-75.840998,4039.025624,18.04462,0.223694,1.153402268,14170,3/5/2017 17:25,20,15.202,4043.946884,22.96588,8.500372,1.545567635,212.2,0,0,1024,1024,1024,1024,213.4,0,95,4.226,4.217,4.22,4.228,0,0,6,GPS_Atti,
4.474932,-75.840998,4039.025624,18.04462,0,1.153402268,14290,3/5/2017 17:25,20,15.202,4043.946884,22.96588,8.500372,1.545567635,212,0,0,1024,1024,1024,1024,213.4,0,95,4.226,4.217,4.22,4.228,0,0,6,GPS_Atti,
4.474932,-75.840998,4039.025624,18.04462,0.447388,1.153402268,14450,3/5/2017 17:25,20,15.202,4043.946884,22.96588,8.500372,1.545567635,211.9,0,0,1024,1024,1024,1024,213.4,0,95,4.226,4.217,4.22,4.228,0,0,6,GPS_Atti,
4.474932,-75.840998,4039.025624,18.04462,0.223694,1.153402268,14560,3/5/2017 17:25,20,15.202,4043.946884,22.96588,8.500372,1.545567635,211.9,0,0,1024,1024,1024,1024,213.4,0,95,4.226,4.217,4.22,4.228,0,0,6,GPS_Atti,
4.474932,-75.840998,4039.025624,18.04462,0,1.153402268,14670,3/5/2017 17:25,20,15.202,4043.946884,22.96588,8.500372,1.545567635,212,0,0,1024,1024,1199,1024,213.4,0,95,4.226,4.217,4.22,4.228,0,0,6,GPS_Atti,
4.474932,-75.840998,4039.025624,18.04462,0,1.153402268,14770,3/5/2017 17:25,20,15.202,4043.946884,22.96588,8.500372,1.545567635,212,0,0,1024,1024,1024,1226,213.2,0,95,4.226,4.217,4.22,4.228,0,0,6,GPS_Atti,
4.474932,-75.840998,4039.025624,18.04462,0.223694,1.153402268,14880,3/5/2017 17:25,20,15.202,4043.946884,22.96588,8.500372,1.545567635,212.2,0,0,1024,1024,1024,1230,213.2,0,95,4.226,4.217,4.22,4.228,0,0,6,GPS_Atti,
4.474932,-75.840998,4039.025624,18.04462,0.223694,1.153402268,15050,3/5/2017 17:25,20,15.202,4043.946884,22.96588,8.500372,1.545567635,213,0,0,1024,1024,1024,1297,213.2,0,95,4.226,4.217,4.22,4.228,0,0,6,GPS_Atti,
4.474932,-75.840998,4039.025624,18.04462,0,1.153402268,15180,3/5/2017 17:25,20,15.202,4043.946884,22.96588,8.500372,1.545567635,218.5,0,0,1024,1024,1024,1220,216.2,0,95,4.226,4.217,4.22,4.228,0,0,6,GPS_Atti,
4.474932,-75.840998,4039.025624,18.04462,0,1.153402268,15320,3/5/2017 17:25,20,15.202,4043.946884,22.96588,8.500372,1.545567635,222.6,0,0,1024,1024,1024,1023,216.2,0,95,4.226,4.217,4.22,4.228,0,0,6,GPS_Atti,
4.474932,-75.840998,4039.025624,18.04462,0,1.153402268,15420,3/5/2017 17:25,20,15.202,4043.946884,22.96588,8.500372,1.545567635,227.9,0,0,1024,1024,1024,1024,216.2,0,95,4.226,4.217,4.22,4.228,0,0,6,GPS_Atti,
4.474933,-75.840998,4039.025624,18.04462,0,1.504042043,15510,3/5/2017 17:25,20,15.202,4043.946884,22.96588,8.500372,1.545567635,232.5,0,0,1024,1024,1024,938,227.2,0,95,4.226,4.217,4.22,4.228,0,0,6,GPS_Atti,
4.474933,-75.840998,4039.025624,18.04462,0,1.504042043,15520,3/5/2017 17:25,20,15.202,4043.946884,22.96588,8.500372,1.545567635,232.5,0,0,1024,1024,1024,938,227.2,0,95,4.226,4.217,4.22,4.228,0,0,6,GPS_Atti,
4.474933,-75.840998,4039.025624,18.04462,0.223694,1.504042043,15720,3/5/2017 17:25,20,15.202,4043.946884,22.96588,8.500372,1.545567635,233,0,0,1024,1024,1024,886,228.9,0,95,4.226,4.217,4.22,4.228,0,0,6,GPS_Atti,
4.474933,-75.840998,4039.025624,18.04462,0,1.504042043,15820,3/5/2017 17:25,20,15.202,4043.946884,22.96588,8.500372,1.545567635,226.7,0,0,1024,1024,1024,1024,228.9,0,95,4.226,4.217,4.22,4.228,0,0,6,GPS_Atti,
4.474933,-75.840999,4039.025624,18.04462,0,1.630662782,15930,3/5/2017 17:25,20,15.202,4043.946884,22.96588,8.500372,1.630662782,222.9,0,0,1024,1024,1024,1024,227.9,0,95,4.226,4.217,4.22,4.228,0,0,6,GPS_Atti,
4.474933,-75.840999,4039.025624,18.04462,0,1.630662782,16040,3/5/2017 17:25,20,15.253,4043.946884,22.96588,8.500372,1.630662782,221.5,0,0,1024,1024,1024,1024,227.9,0,95,4.226,4.217,4.22,4.228,0,0,6,GPS_Atti,
4.474933,-75.840999,4039.025624,18.04462,0,1.630662782,16160,3/5/2017 17:25,20,15.253,4043.946884,22.96588,8.500372,1.630662782,221,0,0,1024,1024,1024,1024,227.9,0,95,4.226,4.217,4.22,4.228,0,0,6,GPS_Atti,
4.474933,-75.840999,4039.025624,18.04462,0,1.630662782,16290,3/5/2017 17:25,20,15.253,4043.946884,22.96588,8.500372,1.630662782,220.6,0,0,1024,1024,1024,1024,224.2,0,95,4.226,4.217,4.22,4.228,0,0,6,GPS_Atti,
4.474933,-75.840999,4039.025624,18.04462,0,1.630662782,16400,3/5/2017 17:25,20,15.253,4043.946884,22.96588,8.500372,1.630662782,220.5,0,0,1024,1024,1024,1024,224.2,0,95,4.226,4.217,4.22,4.228,0,0,6,GPS_Atti,
4.474933,-75.840999,4039.025624,18.04462,0,1.630662782,16520,3/5/2017 17:25,20,15.253,4043.946884,22.96588,8.500372,1.630662782,220.5,0,0,1024,1024,1024,1024,224.2,0,95,4.226,4.217,4.22,4.228,0,0,6,GPS_Atti,
4.474933,-75.840999,4039.025624,18.04462,0.447388,1.630662782,16700,3/5/2017 17:25,20,15.253,4043.946884,22.96588,8.500372,1.630662782,220.7,0,0,1024,1024,1024,823,222.5,0,95,4.226,4.217,4.22,4.228,0,0,6,GPS_Atti,
4.474933,-75.840999,4039.025624,18.04462,0,1.630662782,16870,3/5/2017 17:25,20,15.253,4043.946884,22.96588,8.500372,1.630662782,221,0,0,1024,1024,1024,1039,222.5,0,95,4.226,4.217,4.22,4.228,0,0,6,GPS_Atti,
4.474933,-75.840999,4039.353708,18.372704,0,1.630662782,17060,3/5/2017 17:25,20,15.253,4043.946884,22.96588,8.500372,1.630662782,218.6,0,0,1024,1024,1024,1024,222.5,0,95,4.226,4.217,4.22,4.228,0,0,6,GPS_Atti,
4.474933,-75.840999,4039.025624,18.04462,0.447388,1.630662782,17220,3/5/2017 17:25,20,15.253,4043.946884,22.96588,8.500372,1.630662782,214.6,0,0,1024,1024,1024,1024,218.9,0,95,4.226,4.217,4.22,4.228,0,0,6,GPS_Atti,
4.474933,-75.840999,4039.025624,18.04462,0.223694,1.630662782,17480,3/5/2017 17:25,20,15.253,4043.946884,22.96588,8.500372,1.630662782,214.4,0,0,1024,1024,1024,1024,218.9,0,95,4.226,4.217,4.22,4.228,0,0,6,GPS_Atti,
4.474932,-75.840999,4039.353708,18.372704,0,1.314252011,17640,3/5/2017 17:25,20,15.253,4043.946884,22.96588,8.500372,1.630662782,214.6,0,0,1024,1024,1024,1024,218.9,0,95,4.226,4.217,4.22,4.228,0,0,6,GPS_Atti,
4.474932,-75.840999,4039.025624,18.04462,0.223694,1.314252011,17870,3/5/2017 17:25,20,15.253,4043.946884,22.96588,8.500372,1.630662782,215,0,0,1024,1024,1024,1024,216.5,0.8,95,4.226,4.217,4.22,4.228,0,0,6,GPS_Atti,
4.474932,-75.840999,4039.025624,18.04462,0,1.314252011,18000,3/5/2017 17:25,20,15.161,4043.946884,22.96588,8.500372,1.630662782,215,0,0,1024,1024,1024,1024,216.5,0.8,95,4.226,4.217,4.22,4.228,0,0,6,GPS_Atti,
4.474932,-75.840999,4039.025624,18.04462,0.223694,1.314252011,18220,3/5/2017 17:25,20,15.161,4043.946884,22.96588,8.500372,1.630662782,215.2,0,0,1024,1024,1024,1024,216.5,0.8,95,4.226,4.217,4.22,4.228,0,0,6,GPS_Atti,
4.474932,-75.840998,4039.353708,18.372704,0,1.153402268,18360,3/5/2017 17:25,20,15.161,4043.946884,22.96588,8.500372,1.630662782,215.2,0,0,1024,1024,1024,1024,216.4,10.3,95,4.226,4.217,4.22,4.228,0,0,6,GPS_Atti,
4.474932,-75.840998,4039.353708,18.372704,0,1.153402268,18500,3/5/2017 17:25,20,15.161,4043.946884,22.96588,8.500372,1.630662782,215.2,0,0,1024,1024,1024,1024,216.4,10.3,95,4.226,4.217,4.22,4.228,0,0,6,GPS_Atti,
4.474932,-75.840998,4039.353708,18.372704,0,1.153402268,18620,3/5/2017 17:25,20,15.161,4043.946884,22.96588,8.500372,1.630662782,215.2,0,0,1024,1024,1024,1024,216.4,10.3,95,4.226,4.217,4.22,4.228,0,0,6,GPS_Atti,
4.474933,-75.840998,4039.025624,18.04462,0.223694,1.504042043,18830,3/5/2017 17:25,20,15.161,4043.946884,22.96588,8.500372,1.630662782,215.4,0,0,1024,1024,1024,1024,216.2,16.2,95,4.226,4.217,4.22,4.228,0,0,6,GPS_Atti,
4.474933,-75.840998,4039.025624,18.04462,0,1.504042043,18950,3/5/2017 17:25,20,15.161,4043.946884,22.96588,8.500372,1.630662782,215.5,0,0,1024,1024,1024,1024,216.2,16.2,95,4.226,4.217,4.22,4.228,0,0,6,GPS_Atti,
4.474933,-75.840998,4039.025624,18.04462,0,1.504042043,19070,3/5/2017 17:25,20,15.161,4043.946884,22.96588,8.500372,1.630662782,215.4,0,0,1024,1024,1024,1024,216.2,16.2,95,4.226,4.217,4.22,4.228,0,0,6,GPS_Atti,
4.474933,-75.840998,4039.353708,18.372704,0.223694,1.504042043,19210,3/5/2017 17:25,20,15.161,4043.946884,22.96588,8.500372,1.630662782,215.2,0,0,1024,1024,1024,1024,216.2,16.2,95,4.226,4.217,4.22,4.228,0,0,6,GPS_Atti,
4.474933,-75.840998,4039.353708,18.372704,0,1.504042043,19380,3/5/2017 17:25,20,15.161,4043.946884,22.96588,8.500372,1.630662782,215.1,0,0,1024,1024,1024,1024,216.2,16.2,95,4.226,4.217,4.22,4.228,0,0,6,GPS_Atti,
4.474933,-75.840998,4039.025624,18.04462,0.447388,1.504042043,19500,3/5/2017 17:25,20,15.161,4043.946884,22.96588,8.500372,1.630662782,215,0,0,1024,1024,1024,1024,216.2,16.2,95,4.226,4.217,4.22,4.228,0,0,6,GPS_Atti,
4.474933,-75.840998,4039.025624,18.04462,0.671082,1.504042043,19650,3/5/2017 17:25,20,15.161,4043.946884,22.96588,8.500372,1.630662782,215,0,0,1024,1024,1024,1024,216.2,16.2,95,4.226,4.217,4.22,4.228,0,0,6,GPS_Atti,
4.474933,-75.840998,4039.025624,18.04462,0,1.504042043,19770,3/5/2017 17:25,20,15.161,4043.946884,22.96588,8.500372,1.630662782,215,0,0,1024,1024,1024,1024,216.2,16.2,95,4.226,4.217,4.22,4.228,0,0,6,GPS_Atti,
4.474933,-75.840998,4039.025624,18.04462,0,1.504042043,19870,3/5/2017 17:25,20,15.161,4043.946884,22.96588,8.500372,1.630662782,214.9,0,0,1024,1024,1024,1024,216.2,16.2,95,4.226,4.217,4.22,4.228,0,0,6,GPS_Atti,
4.474933,-75.840998,4039.025624,18.04462,0,1.504042043,20040,3/5/2017 17:25,20,15.114,4043.946884,22.96588,8.500372,1.630662782,214.9,0,0,1024,1024,1024,1024,216,16.2,95,4.226,4.217,4.22,4.228,0,0,6,GPS_Atti,
4.474933,-75.840998,4039.025624,18.04462,0.223694,1.504042043,20130,3/5/2017 17:25,20,15.114,4043.946884,22.96588,8.500372,1.630662782,214.6,0,0,1024,1024,1024,1024,216,16.2,95,4.226,4.217,4.22,4.228,0,0,6,GPS_Atti,
4.474933,-75.840998,4039.025624,18.04462,0,1.504042043,20230,3/5/2017 17:25,20,15.114,4043.946884,22.96588,8.500372,1.630662782,214.6,0,0,1024,1024,1024,1024,216,16.2,95,4.226,4.217,4.22,4.228,0,0,6,GPS_Atti,
4.474933,-75.840998,4039.025624,18.04462,0,1.504042043,20340,3/5/2017 17:25,20,15.114,4043.946884,22.96588,8.500372,1.630662782,214.5,0,0,1024,1024,1024,1024,215.9,16.2,95,4.226,4.217,4.22,4.228,0,0,6,GPS_Atti,
4.474933,-75.840998,4039.025624,18.04462,0,1.504042043,20440,3/5/2017 17:25,20,15.114,4043.946884,22.96588,8.500372,1.630662782,214.6,0,0,1024,1024,1024,1024,215.9,16.2,95,4.226,4.217,4.22,4.228,0,0,6,GPS_Atti,
4.474933,-75.840998,4039.025624,18.04462,0.223694,1.504042043,20600,3/5/2017 17:25,20,15.114,4043.946884,22.96588,8.500372,1.630662782,214.6,0,0,1024,1024,1024,1024,215.9,16.2,95,4.226,4.217,4.22,4.228,0,0,6,GPS_Atti,
4.474933,-75.840998,4039.025624,18.04462,0,1.504042043,20760,3/5/2017 17:25,20,15.114,4043.946884,22.96588,8.500372,1.630662782,214.7,0,0,1024,1024,1024,1024,215.9,16.2,95,4.226,4.217,4.22,4.228,0,0,6,GPS_Atti,
4.474933,-75.840998,4039.025624,18.04462,0,1.504042043,20950,3/5/2017 17:25,20,15.114,4043.946884,22.96588,8.500372,1.630662782,215,0,0,1024,1024,1024,1024,215.9,16.2,95,4.226,4.217,4.22,4.228,0,0,6,GPS_Atti,
4.474933,-75.840998,4039.025624,18.04462,0,1.504042043,21030,3/5/2017 17:25,20,15.083,4043.946884,22.96588,8.500372,1.630662782,215.2,0,0,1024,1024,1024,1024,215.9,16.2,95,4.226,4.217,4.22,4.228,0,0,6,GPS_Atti,
4.474933,-75.840998,4039.025624,18.04462,0,1.504042043,21150,3/5/2017 17:25,20,15.083,4043.946884,22.96588,8.500372,1.630662782,215.2,0,0,1024,1024,1024,1024,215.9,16.2,95,4.226,4.217,4.22,4.228,0,0,6,GPS_Atti,
4.474933,-75.840998,4039.025624,18.04462,0,1.504042043,21280,3/5/2017 17:25,20,15.083,4043.946884,22.96588,8.500372,1.630662782,215.2,0,0,1024,1024,1024,1024,215.9,16.2,95,4.226,4.217,4.22,4.228,0,0,6,GPS_Atti,
4.474933,-75.840998,4039.025624,18.04462,0,1.504042043,21520,3/5/2017 17:25,20,15.083,4043.946884,22.96588,8.500372,1.630662782,215.1,0,0,1024,1024,1024,1024,215.9,16.2,95,4.226,4.217,4.22,4.228,0,0,6,GPS_Atti,
4.474933,-75.840998,4039.025624,18.04462,0,1.504042043,21700,3/5/2017 17:25,20,15.083,4043.946884,22.96588,8.500372,1.630662782,215,0,0,1024,1024,1024,1024,215.9,16.2,95,4.226,4.217,4.22,4.228,0,0,6,GPS_Atti,
4.474933,-75.840998,4039.025624,18.04462,0.223694,1.504042043,21880,3/5/2017 17:25,20,15.083,4043.946884,22.96588,8.500372,1.630662782,215,0,0,1024,1024,1024,1024,215.9,16.2,95,4.226,4.217,4.22,4.228,0,0,6,GPS_Atti,
4.474933,-75.840998,4039.025624,18.04462,0,1.504042043,22040,3/5/2017 17:25,20,15.119,4043.946884,22.96588,8.500372,1.630662782,215,0,0,1024,1024,1024,1024,215.9,16.2,95,4.226,4.217,4.22,4.228,0,0,6,GPS_Atti,
4.474933,-75.840998,4039.025624,18.04462,0,1.504042043,22140,3/5/2017 17:25,20,15.119,4043.946884,22.96588,8.500372,1.630662782,215,0,0,1024,1024,1024,1024,215.9,16.2,95,4.226,4.217,4.22,4.228,0,0,6,GPS_Atti,
4.474933,-75.840998,4039.025624,18.04462,0,1.504042043,22210,3/5/2017 17:25,20,15.119,4043.946884,22.96588,8.500372,1.630662782,215,0,0,1024,1024,1024,1024,215.7,16.2,95,4.226,4.217,4.22,4.228,0,0,6,GPS_Atti,
4.474933,-75.840998,4039.025624,18.04462,0,1.504042043,22330,3/5/2017 17:25,20,15.119,4043.946884,22.96588,8.500372,1.630662782,215.1,0,0,1024,1024,1024,1024,215.7,16.2,95,4.226,4.217,4.22,4.228,0,0,6,GPS_Atti,
4.474933,-75.840998,4039.025624,18.04462,0,1.504042043,22470,3/5/2017 17:25,20,15.119,4043.946884,22.96588,8.500372,1.630662782,215.1,0,0,1024,1024,1024,1024,215.7,16.2,95,4.226,4.217,4.22,4.228,0,0,6,GPS_Atti,
4.474933,-75.840998,4039.025624,18.04462,0,1.504042043,22600,3/5/2017 17:25,20,15.119,4043.946884,22.96588,8.500372,1.630662782,215.1,0,0,1024,1024,1024,1024,215.7,16.2,95,4.226,4.217,4.22,4.228,0,0,6,GPS_Atti,
4.474933,-75.840998,4039.025624,18.04462,0.223694,1.504042043,22750,3/5/2017 17:25,20,15.119,4043.946884,22.96588,8.500372,1.630662782,215,0,0,1024,1024,1024,1024,215.7,16.2,95,4.226,4.217,4.22,4.228,0,0,6,GPS_Atti,
4.474933,-75.840998,4039.025624,18.04462,0.223694,1.504042043,22860,3/5/2017 17:25,20,15.119,4043.946884,22.96588,8.500372,1.630662782,215,0,0,1024,1024,1024,1024,215.7,16.2,95,4.226,4.217,4.22,4.228,0,0,6,GPS_Atti,
4.474933,-75.840998,4039.025624,18.04462,0.223694,1.504042043,23020,3/5/2017 17:25,20,15.119,4043.946884,22.96588,8.500372,1.630662782,215,0,0,1024,1024,1024,1024,215.7,16.2,95,4.226,4.217,4.22,4.228,0,0,6,GPS_Atti,
4.474933,-75.840998,4039.025624,18.04462,0,1.504042043,23150,3/5/2017 17:25,20,15.119,4043.946884,22.96588,8.500372,1.630662782,215,0,0,1024,1024,1024,1024,215.7,16.2,95,4.226,4.217,4.22,4.228,0,0,6,GPS_Atti,
4.474933,-75.840998,4039.025624,18.04462,0,1.504042043,23330,3/5/2017 17:25,20,15.119,4043.946884,22.96588,8.500372,1.630662782,214.9,0,0,1024,1024,1024,1024,215.7,16.2,95,4.226,4.217,4.22,4.228,0,0,6,GPS_Atti,
4.474933,-75.840998,4039.025624,18.04462,0,1.504042043,23490,3/5/2017 17:25,20,15.119,4043.946884,22.96588,8.500372,1.630662782,214.7,0,0,1024,1024,1024,1024,215.7,16.2,95,4.226,4.217,4.22,4.228,0,0,6,GPS_Atti,
4.474933,-75.840998,4039.025624,18.04462,0,1.504042043,23660,3/5/2017 17:25,20,15.119,4043.946884,22.96588,8.500372,1.630662782,214.7,0,0,1024,1024,1024,1024,215.7,16.2,95,4.226,4.217,4.22,4.228,0,0,6,GPS_Atti,
4.474933,-75.840998,4039.025624,18.04462,0,1.504042043,23780,3/5/2017 17:25,20,15.119,4043.946884,22.96588,8.500372,1.630662782,214.6,0,0,1024,1024,1024,1024,215.7,16.2,95,4.226,4.217,4.22,4.228,0,0,6,GPS_Atti,
4.474933,-75.840998,4039.025624,18.04462,0,1.504042043,23940,3/5/2017 17:25,20,15.119,4043.946884,22.96588,8.500372,1.630662782,214.6,0,0,1024,1024,1024,1024,215.7,16.2,95,4.226,4.217,4.22,4.228,0,0,6,GPS_Atti,
4.474932,-75.840998,4039.025624,18.04462,0,1.153402268,24120,3/5/2017 17:25,20,15.119,4043.946884,22.96588,8.500372,1.630662782,214.7,0,0,1024,1024,1024,1024,215.7,16.2,95,4.226,4.217,4.22,4.228,0,0,6,GPS_Atti,
4.474932,-75.840998,4039.025624,18.04462,0,1.153402268,24260,3/5/2017 17:25,20,15.119,4043.946884,22.96588,8.500372,1.630662782,214.7,0,0,1024,1024,1024,1024,215.7,16.2,95,4.226,4.217,4.22,4.228,0,0,6,GPS_Atti,
4.474932,-75.840998,4039.025624,18.04462,0,1.153402268,24420,3/5/2017 17:25,20,15.119,4043.946884,22.96588,8.500372,1.630662782,214.9,0,0,1024,1024,1024,1024,215.5,16.2,95,4.226,4.217,4.22,4.228,0,0,6,GPS_Atti,
4.474932,-75.840998,4039.025624,18.04462,0.223694,1.153402268,24580,3/5/2017 17:25,20,15.119,4043.946884,22.96588,8.500372,1.630662782,215,0,0,1024,1024,1024,1024,215.5,16.2,95,4.226,4.217,4.22,4.228,0,0,6,GPS_Atti,
4.474932,-75.840998,4039.025624,18.04462,0,1.153402268,24750,3/5/2017 17:25,20,15.119,4043.946884,22.96588,8.500372,1.630662782,215,0,0,1024,1024,1024,1024,215.5,16.2,95,4.226,4.217,4.22,4.228,0,0,6,GPS_Atti,
4.474932,-75.840998,4039.025624,18.04462,0,1.153402268,24970,3/5/2017 17:25,20,15.087,4043.946884,22.96588,8.500372,1.630662782,215.1,0,0,1024,1024,1024,1024,215.5,16.2,95,4.226,4.217,4.22,4.228,0,0,6,GPS_Atti,
4.474932,-75.840998,4039.025624,18.04462,0,1.153402268,25160,3/5/2017 17:25,20,15.087,4043.946884,22.96588,8.500372,1.630662782,215.2,0,0,1024,1024,1024,1024,215.5,16.2,95,4.226,4.217,4.22,4.228,0,0,6,GPS_Atti,
4.474932,-75.840998,4039.025624,18.04462,0,1.153402268,25350,3/5/2017 17:25,20,15.087,4043.946884,22.96588,8.500372,1.630662782,215,0,0,1024,1024,1024,1024,215.5,16.2,95,4.226,4.217,4.22,4.228,0,0,6,GPS_Atti,
4.474932,-75.840998,4038.69754,17.716536,0.223694,1.153402268,25470,3/5/2017 17:25,20,15.087,4043.946884,22.96588,8.500372,1.630662782,214.7,0,0,1024,1024,1024,1024,215.4,16.2,95,4.226,4.217,4.22,4.228,0,0,6,GPS_Atti,
4.474932,-75.840998,4038.69754,17.716536,0,1.153402268,25630,3/5/2017 17:25,20,15.087,4043.946884,22.96588,8.500372,1.630662782,214.9,0,0,1024,1024,1024,1024,215.4,16.2,95,4.226,4.217,4.22,4.228,0,0,6,GPS_Atti,
4.474932,-75.840998,4038.69754,17.716536,0.223694,1.153402268,25840,3/5/2017 17:25,20,15.087,4043.946884,22.96588,8.500372,1.630662782,215.2,0,0,1024,1024,1024,1024,215.4,16.2,95,4.226,4.217,4.22,4.228,0,0,6,GPS_Atti,
4.474932,-75.840998,4038.69754,17.716536,0,1.153402268,26070,3/5/2017 17:25,20,15.087,4043.946884,22.96588,8.500372,1.630662782,215.4,0,0,1024,1024,1024,1024,215.4,16.2,95,4.226,4.217,4.22,4.228,0,0,6,GPS_Atti,
4.474932,-75.840998,4039.025624,18.04462,0,1.153402268,26170,3/5/2017 17:25,20,15.087,4043.946884,22.96588,8.500372,1.630662782,215.2,0,0,1024,1024,1024,1024,215.4,16.2,95,4.226,4.217,4.22,4.228,0,0,6,GPS_Atti,
4.474932,-75.840998,4039.025624,18.04462,0,1.153402268,26320,3/5/2017 17:25,20,15.087,4043.946884,22.96588,8.500372,1.630662782,215,0,0,1024,1024,1024,1024,215.4,16.2,95,4.226,4.217,4.22,4.228,0,0,6,GPS_Atti,
4.474932,-75.840998,4038.69754,17.716536,0,1.153402268,26490,3/5/2017 17:25,20,15.087,4043.946884,22.96588,8.500372,1.630662782,215,0,0,1024,1024,1024,1024,215.4,16.2,95,4.226,4.217,4.22,4.228,0,0,6,GPS_Atti,
4.474932,-75.840998,4038.69754,17.716536,0,1.153402268,26680,3/5/2017 17:25,20,15.087,4043.946884,22.96588,8.500372,1.630662782,215,0,0,1024,1024,1024,1024,215.4,16.2,95,4.226,4.217,4.22,4.228,0,0,6,GPS_Atti,
4.474932,-75.840998,4038.69754,17.716536,0,1.153402268,26880,3/5/2017 17:25,20,15.087,4043.946884,22.96588,8.500372,1.630662782,214.9,0,0,1024,1024,1024,1024,215.4,16.2,95,4.226,4.217,4.22,4.228,0,0,6,GPS_Atti,
4.474932,-75.840998,4038.69754,17.716536,0,1.153402268,27010,3/5/2017 17:25,20,15.069,4043.946884,22.96588,8.500372,1.630662782,215,0,0,1024,1024,1024,1024,215.4,16.2,95,4.226,4.217,4.22,4.228,0,0,6,GPS_Atti,
4.474933,-75.840998,4038.69754,17.716536,0,1.504042043,27130,3/5/2017 17:25,20,15.069,4043.946884,22.96588,8.500372,1.630662782,214.7,0,0,1024,1024,1024,1024,215.4,16.2,95,4.226,4.217,4.22,4.228,0,0,6,GPS_Atti,
4.474933,-75.840998,4038.69754,17.716536,0.223694,1.504042043,27260,3/5/2017 17:25,20,15.069,4043.946884,22.96588,8.500372,1.630662782,214.6,0,0,1024,1024,1024,1024,215.4,16.2,95,4.226,4.217,4.22,4.228,0,0,6,GPS_Atti,
4.474933,-75.840998,4039.025624,18.04462,0,1.504042043,27420,3/5/2017 17:25,20,15.069,4043.946884,22.96588,8.500372,1.630662782,214.6,0,0,1024,1024,1024,1024,215.4,16.2,95,4.226,4.217,4.22,4.228,0,0,6,GPS_Atti,
4.474933,-75.840998,4039.025624,18.04462,0.223694,1.504042043,27540,3/5/2017 17:25,20,15.069,4043.946884,22.96588,8.500372,1.630662782,214.6,0,0,1024,1024,1024,1024,215.4,16.2,95,4.226,4.217,4.22,4.228,0,0,6,GPS_Atti,
4.474933,-75.840998,4039.025624,18.04462,0,1.504042043,27650,3/5/2017 17:25,20,15.069,4043.946884,22.96588,8.500372,1.630662782,214.6,0,0,1024,1024,1024,1024,215.4,16.2,95,4.226,4.217,4.22,4.228,0,0,6,GPS_Atti,
4.474933,-75.840998,4039.025624,18.04462,0,1.504042043,27830,3/5/2017 17:25,20,15.069,4043.946884,22.96588,8.500372,1.630662782,214.6,0,0,1024,1024,1024,1024,215.4,16.2,95,4.226,4.217,4.22,4.228,0,0,6,GPS_Atti,
4.474933,-75.840998,4039.025624,18.04462,0,1.504042043,27960,3/5/2017 17:25,20,15.095,4043.946884,22.96588,8.500372,1.630662782,214.7,0,0,1024,1024,1024,1024,215.4,16.2,95,4.226,4.217,4.22,4.228,0,0,6,GPS_Atti,
4.474933,-75.840998,4039.025624,18.04462,0,1.504042043,28120,3/5/2017 17:25,20,15.095,4043.946884,22.96588,8.500372,1.630662782,214.7,0,0,1024,1024,1055,1082,215.4,16.2,95,4.226,4.217,4.22,4.228,0,0,6,GPS_Atti,
4.474933,-75.840998,4039.025624,18.04462,0,1.504042043,28300,3/5/2017 17:25,20,15.095,4043.946884,22.96588,8.500372,1.630662782,214.5,0,0,1024,1024,1057,1024,215.4,16.3,95,4.226,4.217,4.22,4.228,0,0,6,GPS_Atti,
4.474933,-75.840998,4039.025624,18.04462,0,1.504042043,28430,3/5/2017 17:25,20,15.095,4043.946884,22.96588,8.500372,1.630662782,214.5,0,0,1024,1024,1024,1024,215.4,16.3,95,4.226,4.217,4.22,4.228,0,0,6,GPS_Atti,
4.474933,-75.840998,4039.025624,18.04462,0,1.504042043,28620,3/5/2017 17:25,20,15.095,4043.946884,22.96588,8.500372,1.630662782,214.2,0,0,1024,1024,1024,1024,215.4,16.3,95,4.226,4.217,4.22,4.228,0,0,6,GPS_Atti,
4.474933,-75.840998,4039.025624,18.04462,0.223694,1.504042043,28780,3/5/2017 17:25,20,15.095,4043.946884,22.96588,8.500372,1.630662782,212.6,0,0,1024,1024,1143,1024,215.4,16.3,95,4.226,4.217,4.22,4.228,0,0,6,GPS_Atti,
4.474933,-75.840998,4039.025624,18.04462,0,1.504042043,28900,3/5/2017 17:25,20,15.095,4043.946884,22.96588,8.500372,1.630662782,212.2,0,0,1024,1024,1188,1024,215.4,16.3,95,4.226,4.217,4.22,4.228,0,0,6,GPS_Atti,
4.474933,-75.840998,4039.025624,18.04462,0,1.504042043,29050,3/5/2017 17:25,20,15.095,4043.946884,22.96588,8.500372,1.630662782,212,0,0,1024,1024,1239,1024,215.4,16.3,95,4.226,4.217,4.22,4.228,0,0,6,GPS_Atti,
4.474933,-75.840998,4038.69754,17.716536,0.447388,1.504042043,29150,3/5/2017 17:25,20,15.095,4043.946884,22.96588,8.500372,1.630662782,212,0,0,1024,1024,1261,1024,215.4,16.3,95,4.226,4.217,4.22,4.228,0,0,6,GPS_Atti,
4.474933,-75.840998,4039.025624,18.04462,0.894776,1.504042043,29340,3/5/2017 17:25,20,15.095,4043.946884,22.96588,8.500372,1.630662782,212.2,0,0,1024,1024,1268,1024,215.4,16.3,95,4.226,4.217,4.22,4.228,0,0,6,GPS_Atti,
4.474933,-75.840998,4039.025624,18.04462,1.789552,1.504042043,29480,3/5/2017 17:25,20,15.095,4043.946884,22.96588,8.500372,1.630662782,212.6,0,0,1024,1024,1501,1024,215.4,16.3,95,4.226,4.217,4.22,4.228,0,0,6,GPS_Atti,
4.474934,-75.840998,4039.353708,18.372704,2.23694,1.86015754,29600,3/5/2017 17:25,20,15.095,4043.946884,22.96588,8.500372,1.86015754,213.1,0,0,1024,1024,1630,1024,214.5,16.2,95,4.226,4.217,4.22,4.228,0,0,6,GPS_Atti,
4.474934,-75.840998,4039.353708,18.372704,2.23694,1.86015754,29610,3/5/2017 17:25,20,15.095,4043.946884,22.96588,8.500372,1.86015754,213.1,0,0,1024,1024,1630,1024,214.5,16.2,95,4.226,4.217,4.22,4.228,0,0,6,GPS_Atti,
4.474934,-75.840999,4040.666044,19.68504,4.026492,1.963950194,29720,3/5/2017 17:25,20,15.095,4043.946884,22.96588,8.500372,1.963950194,213.4,0,0,1024,1024,1684,1024,214.5,16.2,95,4.226,4.217,4.22,4.228,0,0,6,GPS_Atti,
4.474934,-75.840999,4041.650296,20.669292,5.37312988,1.963950194,29860,3/5/2017 17:25,20,15.095,4043.946884,22.96588,8.500372,1.963950194,213.4,0,0,1024,1024,1684,1024,214.5,16.2,95,4.226,4.217,4.22,4.228,0,0,6,GPS_Atti,
4.474934,-75.840999,4041.650296,20.669292,5.37312988,1.963950194,29930,3/5/2017 17:25,20,15.095,4043.946884,22.96588,8.500372,1.963950194,213.4,0,0,1024,1024,1684,1024,214.5,16.2,95,4.226,4.217,4.22,4.228,0,0,6,GPS_Atti,
4.474934,-75.840999,4043.6188,22.637796,7.83152694,1.963950194,30070,3/5/2017 17:25,20,15.095,4043.946884,22.96588,8.500372,1.963950194,213.1,0,0,1024,1024,1684,1063,214.4,16.2,95,4.226,4.217,4.22,4.228,0,0,6,GPS_Atti,
4.474934,-75.840999,4044.931136,23.950132,8.72630294,1.963950194,30190,3/5/2017 17:25,20,15.095,4044.931136,23.950132,8.72630294,1.963950194,213.1,0,0,1024,1024,1684,1024,214.4,16.2,95,4.226,4.217,4.22,4.228,0,0,6,GPS_Atti,
4.474934,-75.840999,4046.571556,25.590552,9.17369094,1.963950194,30320,3/5/2017 17:25,20,15.095,4046.571556,25.590552,9.17369094,1.963950194,213,0,0,1024,1024,1684,959,214.4,16.2,95,4.226,4.217,4.22,4.228,0,0,6,GPS_Atti,
4.474934,-75.841,4049.196228,28.215224,9.84477294,2.125705449,30430,3/5/2017 17:25,20,15.095,4049.196228,28.215224,9.84477294,2.125705449,212.9,0,0,1024,1024,1684,961,214.4,16.2,95,4.226,4.217,4.22,4.228,0,0,6,GPS_Atti,
4.474934,-75.841,4050.836648,29.855644,9.84477294,2.125705449,30600,3/5/2017 17:25,20,15.095,4050.836648,29.855644,9.84477294,2.125705449,212.9,0,0,1024,1024,1684,1024,214.4,16.2,95,4.226,4.217,4.22,4.228,0,0,6,GPS_Atti,
4.474934,-75.841,4052.477068,31.496064,10.06623,2.125705449,30720,3/5/2017 17:25,20,15.095,4052.477068,31.496064,10.06623,2.125705449,212.4,0,0,1024,1024,1684,1033,214.4,16.2,95,4.226,4.217,4.22,4.228,0,0,6,GPS_Atti,
4.474934,-75.841001,4055.757908,34.776904,10.513618,2.333399025,30950,3/5/2017 17:25,20,15.095,4055.757908,34.776904,10.513618,2.333399025,211.2,0,0,1024,1024,1684,1024,214.4,16.2,95,4.226,4.217,4.22,4.228,0,0,6,GPS_Atti,
4.474934,-75.841001,4058.710664,37.72966,10.73954894,2.333399025,31110,3/5/2017 17:26,20,15.095,4058.710664,37.72966,10.73954894,2.333399025,211.1,0,0,1024,1024,1684,1024,214.4,16.2,95,4.226,4.217,4.22,4.228,0,0,6,GPS_Atti,
4.474934,-75.841001,4060.351084,39.37008,10.51585494,2.333399025,31260,3/5/2017 17:26,20,15.095,4060.351084,39.37008,10.73954894,2.333399025,211.1,0,0,1024,1024,1684,1024,214.4,16.2,95,4.226,4.217,4.22,4.228,0,0,6,GPS_Atti,
4.474934,-75.841001,4063.631924,42.65092,10.06846694,2.333399025,31410,3/5/2017 17:26,20,15.095,4063.631924,42.65092,10.73954894,2.333399025,211.1,0,0,1024,1024,1684,1024,213.2,16.2,95,4.226,4.217,4.22,4.228,0,0,6,GPS_Atti,
4.474934,-75.841001,4063.631924,42.65092,10.06846694,2.333399025,31420,3/5/2017 17:26,20,15.095,4063.631924,42.65092,10.73954894,2.333399025,211.1,0,0,1024,1024,1684,1024,213.2,16.2,95,4.226,4.217,4.22,4.228,0,0,6,GPS_Atti,
4.474934,-75.841001,4066.256596,45.275592,8.94999694,2.333399025,31580,3/5/2017 17:26,20,15.095,4066.256596,45.275592,10.73954894,2.333399025,211,0,0,1024,1024,1684,1024,213.2,16.2,95,4.226,4.217,4.22,4.228,0,0,6,GPS_Atti,
4.474934,-75.841,4067.897016,46.916012,8.28338882,2.125705449,31800,3/5/2017 17:26,20,15.095,4067.897016,46.916012,10.73954894,2.333399025,211,0,0,1024,1024,1684,1024,213.2,16.2,95,4.226,4.217,4.22,4.228,0,0,6,GPS_Atti,
4.474934,-75.841,4070.193604,49.2126,8.28338882,2.125705449,31940,3/5/2017 17:26,20,15.095,4070.193604,49.2126,10.73954894,2.333399025,211,0,0,1024,1024,1684,1023,213.2,16.2,95,4.226,4.217,4.22,4.228,0,0,6,GPS_Atti,
4.474934,-75.841,4071.177856,50.196852,8.50708282,2.125705449,32100,3/5/2017 17:26,20,15.095,4071.177856,50.196852,10.73954894,2.333399025,211,0,0,1024,1024,1684,1024,212.9,16.2,95,4.226,4.217,4.22,4.228,0,0,6,GPS_Atti,
4.474934,-75.841,4074.130612,53.149608,8.50708282,2.125705449,32260,3/5/2017 17:26,20,15.095,4074.130612,53.149608,10.73954894,2.333399025,210.9,0,0,1024,1024,1684,1022,212.9,16.2,95,4.226,4.217,4.22,4.228,0,0,6,GPS_Atti,
4.474933,-75.840999,4075.114864,54.13386,8.05969482,1.630662782,32410,3/5/2017 17:26,20,15.095,4075.114864,54.13386,10.73954894,2.333399025,210.9,0,0,1024,1024,1684,1024,212.9,16.2,95,4.226,4.217,4.22,4.228,0,0,6,GPS_Atti,
4.474933,-75.840999,4077.411452,56.430448,7.83600082,1.630662782,32540,3/5/2017 17:26,20,15.095,4077.411452,56.430448,10.73954894,2.333399025,211,0,0,1024,1024,1684,1024,212.5,16.2,95,4.226,4.217,4.22,4.228,0,0,6,GPS_Atti,
4.474933,-75.840999,4079.379956,58.398952,7.158208,1.630662782,32670,3/5/2017 17:26,20,15.095,4079.379956,58.398952,10.73954894,2.333399025,211.1,0,0,1024,1024,1684,1024,212.5,16.2,95,4.226,4.217,4.22,4.228,0,0,6,GPS_Atti,
4.474933,-75.840999,4080.692292,59.711288,7.158208,1.630662782,32770,3/5/2017 17:26,20,15.095,4080.692292,59.711288,10.73954894,2.333399025,211.1,0,0,1024,1024,1684,1024,212.5,16.2,95,4.226,4.217,4.22,4.228,0,0,6,GPS_Atti,
4.474933,-75.840999,4082.004628,61.023624,7.158208,1.630662782,32900,3/5/2017 17:26,20,15.095,4082.004628,61.023624,10.73954894,2.333399025,211.1,0,0,1024,1024,1684,1024,212.4,16.2,95,4.226,4.217,4.22,4.228,0,0,6,GPS_Atti,
4.474933,-75.840999,4082.660796,61.679792,6.71082,1.630662782,33070,3/5/2017 17:26,20,15.095,4082.660796,61.679792,10.73954894,2.333399025,211.1,0,0,1024,1024,1684,1024,212.4,16.2,95,4.226,4.217,4.22,4.228,0,0,6,GPS_Atti,
4.474933,-75.840999,4084.957384,63.97638,6.487126,1.630662782,33230,3/5/2017 17:26,20,15.095,4084.957384,63.97638,10.73954894,2.333399025,211.1,0,0,1024,1024,1684,1024,212.4,16.2,95,4.226,4.217,4.22,4.228,0,0,6,GPS_Atti,
4.474933,-75.840999,4086.925888,65.944884,6.039738,1.630662782,33410,3/5/2017 17:26,20,15.095,4086.925888,65.944884,10.73954894,2.333399025,211.1,0,0,1024,1024,1684,1024,212.4,16.2,95,4.226,4.217,4.22,4.228,0,0,6,GPS_Atti,
4.474933,-75.840999,4088.566308,67.585304,6.039738,1.630662782,33540,3/5/2017 17:26,20,15.095,4088.566308,67.585304,10.73954894,2.333399025,211,0,0,1024,1024,1684,1024,212.4,16.2,95,4.226,4.217,4.22,4.228,0,0,6,GPS_Atti,
4.474933,-75.840999,4089.222476,68.241472,6.039738,1.630662782,33740,3/5/2017 17:26,20,15.095,4089.222476,68.241472,10.73954894,2.333399025,211,0,0,1024,1024,1684,1024,212.4,16.2,95,4.226,4.217,4.22,4.228,0,0,6,GPS_Atti,
4.474933,-75.840999,4090.534812,69.553808,6.487126,1.630662782,33840,3/5/2017 17:26,20,15.095,4090.534812,69.553808,10.73954894,2.333399025,211,0,0,1024,1024,1684,1024,212.2,16.2,95,4.226,4.217,4.22,4.228,0,0,6,GPS_Atti,
4.474933,-75.840998,4092.175232,71.194228,6.039738,1.504042043,33960,3/5/2017 17:26,20,14.749,4092.175232,71.194228,10.73954894,2.333399025,211,0,0,1024,1024,1684,1024,212.2,16.2,94,4.226,4.217,4.22,4.228,0,0,6,GPS_Atti,
4.474933,-75.840998,4093.159484,72.17848,6.263432,1.504042043,34090,3/5/2017 17:26,20,14.749,4093.159484,72.17848,10.73954894,2.333399025,211,0,0,1024,1024,1684,1024,212.2,16.2,94,4.226,4.217,4.22,4.228,0,0,6,GPS_Atti,
4.474933,-75.840998,4093.159484,72.17848,6.263432,1.504042043,34110,3/5/2017 17:26,20,14.749,4093.159484,72.17848,10.73954894,2.333399025,211,0,0,1024,1024,1684,1024,212.2,16.2,94,4.226,4.217,4.22,4.228,0,0,6,GPS_Atti,
4.474933,-75.840998,4093.159484,72.17848,6.263432,1.504042043,34120,3/5/2017 17:26,20,14.749,4093.159484,72.17848,10.73954894,2.333399025,211,0,0,1024,1024,1684,1024,212.2,16.2,94,4.226,4.217,4.22,4.228,0,0,6,GPS_Atti,
4.474933,-75.840998,4094.799904,73.8189,6.263432,1.504042043,34200,3/5/2017 17:26,20,14.749,4094.799904,73.8189,10.73954894,2.333399025,211,0,0,1024,1024,1684,1024,212.2,16.2,94,4.226,4.217,4.22,4.228,0,0,6,GPS_Atti,
4.474933,-75.840998,4094.799904,73.8189,6.263432,1.504042043,34210,3/5/2017 17:26,20,14.749,4094.799904,73.8189,10.73954894,2.333399025,211,0,0,1024,1024,1684,1024,212.2,16.2,94,4.226,4.217,4.22,4.228,0,0,6,GPS_Atti,
4.474933,-75.840998,4094.799904,73.8189,6.263432,1.504042043,34230,3/5/2017 17:26,20,14.749,4094.799904,73.8189,10.73954894,2.333399025,211,0,0,1024,1024,1684,1024,212.2,16.2,94,4.226,4.217,4.22,4.228,0,0,6,GPS_Atti,
4.474933,-75.840998,4095.456072,74.475068,6.487126,1.504042043,34380,3/5/2017 17:26,20,14.749,4095.456072,74.475068,10.73954894,2.333399025,211,0,0,1024,1024,1684,1022,212.2,16.2,94,4.226,4.217,4.22,4.228,0,0,6,GPS_Atti,
4.474933,-75.840998,4097.096492,76.115488,6.71082,1.504042043,34530,3/5/2017 17:26,20,14.749,4097.096492,76.115488,10.73954894,2.333399025,211,0,0,1024,1024,1684,1019,212.2,16.2,94,4.226,4.217,4.22,4.228,0,0,6,GPS_Atti,
4.474933,-75.840998,4098.080744,77.09974,6.487126,1.504042043,34660,3/5/2017 17:26,20,14.749,4098.080744,77.09974,10.73954894,2.333399025,211,0,0,1024,1024,1684,978,212.2,16.2,94,4.226,4.217,4.22,4.228,0,0,6,GPS_Atti,
4.474933,-75.840998,4099.721164,78.74016,6.263432,1.504042043,34770,3/5/2017 17:26,20,14.749,4099.721164,78.74016,10.73954894,2.333399025,211,0,0,1024,1024,1684,972,212,16.2,94,4.226,4.217,4.22,4.228,0,0,6,GPS_Atti,
4.474933,-75.840998,4100.377332,79.396328,6.487126,1.504042043,34870,3/5/2017 17:26,20,14.749,4100.377332,79.396328,10.73954894,2.333399025,211,0,0,1024,1024,1684,973,212,16.2,94,4.226,4.217,4.22,4.228,0,0,6,GPS_Atti,
4.474933,-75.840999,4102.345836,81.364832,6.71082,1.630662782,35030,3/5/2017 17:26,20,14.81,4102.345836,81.364832,10.73954894,2.333399025,210.6,0,0,1024,1024,1684,979,211.9,16.2,94,4.226,4.217,4.22,4.228,0,0,6,GPS_Atti,
4.474933,-75.840999,4103.658172,82.677168,6.934514,1.630662782,35130,3/5/2017 17:26,20,14.81,4103.658172,82.677168,10.73954894,2.333399025,210.2,0,0,1024,1024,1684,1136,211.9,16.2,94,4.226,4.217,4.22,4.228,0,0,6,GPS_Atti,
4.474933,-75.840999,4105.298592,84.317588,6.71082,1.630662782,35320,3/5/2017 17:26,20,14.81,4105.298592,84.317588,10.73954894,2.333399025,209.9,0,0,1024,1024,1684,1270,211.5,16.2,94,4.226,4.217,4.22,4.228,0,0,6,GPS_Atti,
4.474933,-75.840999,4106.610928,85.629924,6.71082,1.630662782,35470,3/5/2017 17:26,20,14.81,4106.610928,85.629924,10.73954894,2.333399025,210.4,0,0,1024,1024,1684,1286,211.5,16.2,94,4.226,4.217,4.22,4.228,0,0,6,GPS_Atti,
4.474933,-75.840999,4106.610928,85.629924,6.71082,1.630662782,35520,3/5/2017 17:26,20,14.81,4106.610928,85.629924,10.73954894,2.333399025,210.4,0,0,1024,1024,1684,1286,213.4,16.2,94,4.226,4.217,4.22,4.228,0,0,6,GPS_Atti,
4.474933,-75.840999,4106.610928,85.629924,6.71082,1.630662782,35530,3/5/2017 17:26,20,14.81,4106.610928,85.629924,10.73954894,2.333399025,210.4,0,0,1024,1024,1684,1286,213.4,16.2,94,4.226,4.217,4.22,4.228,0,0,6,GPS_Atti,
4.474933,-75.840999,4108.579432,87.598428,7.158208,1.630662782,35700,3/5/2017 17:26,20,14.81,4108.579432,87.598428,10.73954894,2.333399025,219,0,0,1024,1024,1684,1231,215.2,16.2,94,4.226,4.217,4.22,4.228,0,0,6,GPS_Atti,
4.474933,-75.840999,4109.891768,88.910764,7.381902,1.630662782,35880,3/5/2017 17:26,20,14.81,4109.891768,88.910764,10.73954894,2.333399025,224,0,0,1024,1024,1684,1024,215.2,16.2,94,4.226,4.217,4.22,4.228,0,0,6,GPS_Atti,
4.474933,-75.840999,4111.860272,90.879268,7.158208,1.630662782,36070,3/5/2017 17:26,20,14.81,4111.860272,90.879268,10.73954894,2.333399025,232.7,0,0,1024,1024,1674,1024,215.2,16.2,94,4.226,4.217,4.22,4.228,0,0,6,GPS_Atti,
4.474933,-75.840999,4113.828776,92.847772,7.158208,1.630662782,36250,3/5/2017 17:26,20,14.81,4113.828776,92.847772,10.73954894,2.333399025,236.5,0,0,1024,1024,1676,1024,228.4,16.2,94,4.226,4.217,4.22,4.228,0,0,6,GPS_Atti,
4.474933,-75.840999,4116.453448,95.472444,7.605596,1.630662782,36400,3/5/2017 17:26,20,14.81,4116.453448,95.472444,10.73954894,2.333399025,236.8,0,0,1024,1024,1676,1024,228.4,16.2,94,4.226,4.217,4.22,4.228,0,0,6,GPS_Atti,
4.474933,-75.840999,4117.109616,96.128612,7.605596,1.630662782,36550,3/5/2017 17:26,20,14.81,4117.109616,96.128612,10.73954894,2.333399025,236.6,0,0,1024,1024,1597,1024,228.4,16.2,94,4.226,4.217,4.22,4.228,0,0,6,GPS_Atti,
4.474933,-75.840999,4119.734288,98.753284,7.605596,1.630662782,36730,3/5/2017 17:26,20,14.81,4119.734288,98.753284,10.73954894,2.333399025,236.3,0,0,1024,1024,1422,1037,234.5,16.2,94,4.226,4.217,4.22,4.228,0,0,6,GPS_Atti,
4.474933,-75.840999,4121.702792,100.721788,7.381902,1.630662782,36910,3/5/2017 17:26,20,14.81,4121.702792,100.721788,10.73954894,2.333399025,236,0,0,1024,1024,1024,1024,234.5,16.2,94,4.226,4.217,4.22,4.228,0,0,6,GPS_Atti,
4.474932,-75.840999,4123.343212,102.362208,7.82929,1.314252011,37090,3/5/2017 17:26,20,14.81,4123.343212,102.362208,10.73954894,2.333399025,235.7,0,0,1024,1024,1024,1024,234.5,16.2,94,4.226,4.217,4.22,4.228,0,0,6,GPS_Atti,
4.474932,-75.840999,4124.983632,104.002628,6.263432,1.314252011,37200,3/5/2017 17:26,20,14.81,4124.983632,104.002628,10.73954894,2.333399025,235.5,0,0,1024,1024,1024,1024,234.7,15,94,4.226,4.217,4.22,4.228,0,0,6,GPS_Atti,
4.474932,-75.840999,4125.967884,104.98688,5.59235,1.314252011,37370,3/5/2017 17:26,20,14.81,4125.967884,104.98688,10.73954894,2.333399025,235.2,0,0,1024,1024,1024,1024,234.7,15,94,4.226,4.217,4.22,4.228,0,0,6,GPS_Atti,
4.474932,-75.840999,4127.608304,106.6273,4.026492,1.314252011,37490,3/5/2017 17:26,20,14.81,4127.608304,106.6273,10.73954894,2.333399025,235.1,0,0,1024,1024,1024,1024,234.7,15,94,4.226,4.217,4.22,4.228,0,0,6,GPS_Atti,
4.474932,-75.840999,4127.608304,106.6273,4.026492,1.314252011,37520,3/5/2017 17:26,20,14.81,4127.608304,106.6273,10.73954894,2.333399025,235.1,0,0,1024,1024,1024,1024,234.9,8.6,94,4.226,4.217,4.22,4.228,0,0,6,GPS_Atti,
4.474932,-75.840999,4128.264472,107.283468,2.23694,1.314252011,37670,3/5/2017 17:26,20,14.81,4128.264472,107.283468,10.73954894,2.333399025,235.2,0,0,1024,1024,1024,1024,234.9,8.6,94,4.226,4.217,4.22,4.228,0,0,6,GPS_Atti,
4.474932,-75.840999,4128.264472,107.283468,1.565858,1.314252011,37810,3/5/2017 17:26,20,14.81,4128.264472,107.283468,10.73954894,2.333399025,235.2,0,0,1024,1024,1024,1024,234.9,8.6,94,4.226,4.217,4.22,4.228,0,0,6,GPS_Atti,
4.474932,-75.840999,4128.264472,107.283468,1.565858,1.314252011,37820,3/5/2017 17:26,20,14.81,4128.264472,107.283468,10.73954894,2.333399025,235.2,0,0,1024,1024,1024,1024,234.9,8.6,94,4.226,4.217,4.22,4.228,0,0,6,GPS_Atti,
4.474932,-75.840999,4128.92064,107.939636,1.11847,1.314252011,37970,3/5/2017 17:26,20,14.745,4128.92064,107.939636,10.73954894,2.333399025,235.2,0,0,1024,1024,1024,1024,234.9,2.4,94,4.226,4.217,4.22,4.228,0,0,6,GPS_Atti,
4.474932,-75.840999,4128.92064,107.939636,0.671082,1.314252011,38110,3/5/2017 17:26,20,14.745,4128.92064,107.939636,10.73954894,2.333399025,235.2,0,0,1024,1024,1024,1024,234.9,2.4,94,4.226,4.217,4.22,4.228,0,0,6,GPS_Atti,
4.474932,-75.840999,4129.248724,108.26772,0.447388,1.314252011,38290,3/5/2017 17:26,20,14.745,4129.248724,108.26772,10.73954894,2.333399025,235.3,0,0,1024,1024,1024,1024,234.9,2.4,94,4.226,4.217,4.22,4.228,0,0,6,GPS_Atti,
4.474931,-75.840999,4129.248724,108.26772,0.447388,1.03037733,38460,3/5/2017 17:26,20,14.745,4129.248724,108.26772,10.73954894,2.333399025,235.3,0,0,1024,1024,1024,1024,234.9,2.4,94,4.226,4.217,4.22,4.228,0,0,6,GPS_Atti,
4.474931,-75.840999,4129.248724,108.26772,0.447388,1.03037733,38590,3/5/2017 17:26,20,14.745,4129.248724,108.26772,10.73954894,2.333399025,235.3,0,0,1024,1024,1024,1024,234.9,2.4,94,4.226,4.217,4.22,4.228,0,0,6,GPS_Atti,
4.474931,-75.840999,4129.248724,108.26772,0.447388,1.03037733,38620,3/5/2017 17:26,20,14.745,4129.248724,108.26772,10.73954894,2.333399025,235.3,0,0,1024,1024,1024,1024,234.9,2.4,94,4.226,4.217,4.22,4.228,0,0,6,GPS_Atti,
4.474931,-75.840999,4129.248724,108.26772,0,1.03037733,38810,3/5/2017 17:26,20,14.745,4129.248724,108.26772,10.73954894,2.333399025,235.3,0,0,1024,1024,1024,1024,234.9,-9,94,4.226,4.217,4.22,4.228,0,0,6,GPS_Atti,
4.474931,-75.840999,4129.248724,108.26772,0,1.03037733,38990,3/5/2017 17:26,20,15.322,4129.248724,108.26772,10.73954894,2.333399025,235.3,0,0,1024,1024,1024,1024,234.9,-9,94,4.226,4.217,4.22,4.228,0,0,6,GPS_Atti,
4.474931,-75.840999,4129.248724,108.26772,0,1.03037733,39120,3/5/2017 17:26,20,15.322,4129.248724,108.26772,10.73954894,2.333399025,235.3,0,0,1024,1024,1024,1024,234.9,-9,94,4.226,4.217,4.22,4.228,0,0,6,GPS_Atti,
4.474931,-75.840999,4129.248724,108.26772,0.447388,1.03037733,39310,3/5/2017 17:26,20,15.322,4129.248724,108.26772,10.73954894,2.333399025,235.3,0,0,1024,1024,1024,1024,234.9,-9,94,4.226,4.217,4.22,4.228,0,0,6,GPS_Atti,
4.474931,-75.841,4129.248724,108.26772,0.223694,1.312706735,39550,3/5/2017 17:26,20,15.322,4129.248724,108.26772,10.73954894,2.333399025,235.5,0,0,1024,1024,1024,1024,234.9,-9,94,4.226,4.217,4.22,4.228,0,0,6,GPS_Atti,
4.474931,-75.841,4129.248724,108.26772,0,1.312706735,39690,3/5/2017 17:26,20,15.322,4129.248724,108.26772,10.73954894,2.333399025,235.3,0,0,1024,1024,1024,885,234.9,-9,94,4.226,4.217,4.22,4.228,0,0,6,GPS_Atti,
4.474931,-75.841,4129.248724,108.26772,0,1.312706735,39730,3/5/2017 17:26,20,15.322,4129.248724,108.26772,10.73954894,2.333399025,235.3,0,0,1024,1024,1024,846,235,-9,94,4.226,4.217,4.22,4.228,0,0,6,GPS_Atti,
